{
  "_comment": "多日行程热门城市Top20预缓存。运行时可调用LLM/API实时补充其他城市。",
  "北京": [
    {"shop_id":"BJ_scenic_001","name":"故宫博物院","category":"scenic","rating":4.9,"lat":39.916,"lng":116.397,"address":"东城区景山前街4号"},
    {"shop_id":"BJ_scenic_002","name":"颐和园","category":"scenic","rating":4.8,"lat":39.999,"lng":116.275,"address":"海淀区新建宫门路19号"},
    {"shop_id":"BJ_scenic_003","name":"天坛公园","category":"scenic","rating":4.8,"lat":39.882,"lng":116.406,"address":"东城区天坛路甲1号"},
    {"shop_id":"BJ_scenic_004","name":"八达岭长城","category":"scenic","rating":4.7,"lat":40.359,"lng":116.020,"address":"延庆区八达岭镇"},
    {"shop_id":"BJ_scenic_005","name":"天安门广场","category":"scenic","rating":4.9,"lat":39.908,"lng":116.397,"address":"东城区长安街"},
    {"shop_id":"BJ_scenic_006","name":"圆明园","category":"scenic","rating":4.6,"lat":40.009,"lng":116.298,"address":"海淀区清华西路28号"},
    {"shop_id":"BJ_scenic_007","name":"鸟巢(国家体育场)","category":"scenic","rating":4.5,"lat":39.992,"lng":116.390,"address":"朝阳区国家体育场南路1号"},
    {"shop_id":"BJ_scenic_008","name":"雍和宫","category":"scenic","rating":4.7,"lat":39.947,"lng":116.417,"address":"东城区雍和宫大街12号"},
    {"shop_id":"BJ_res_001","name":"全聚德烤鸭(前门店)","category":"restaurant","rating":4.6,"lat":39.896,"lng":116.397,"address":"东城区前门大街30号"},
    {"shop_id":"BJ_res_002","name":"东来顺饭庄(王府井店)","category":"hotpot","rating":4.5,"lat":39.914,"lng":116.410,"address":"东城区王府井大街198号"},
    {"shop_id":"BJ_res_003","name":"便宜坊烤鸭(鲜鱼口店)","category":"restaurant","rating":4.5,"lat":39.893,"lng":116.398,"address":"东城区鲜鱼口街65号"},
    {"shop_id":"BJ_res_004","name":"大董烤鸭(工体店)","category":"restaurant","rating":4.7,"lat":39.932,"lng":116.443,"address":"朝阳区工人体育场东门"},
    {"shop_id":"BJ_res_005","name":"聚宝源(牛街总店)","category":"hotpot","rating":4.7,"lat":39.889,"lng":116.363,"address":"西城区牛街西里1号"},
    {"shop_id":"BJ_shop_001","name":"王府井步行街","category":"shopping","rating":4.6,"lat":39.914,"lng":116.410,"address":"东城区王府井大街"},
    {"shop_id":"BJ_shop_002","name":"三里屯太古里","category":"shopping","rating":4.5,"lat":39.933,"lng":116.454,"address":"朝阳区三里屯路19号"},
    {"shop_id":"BJ_shop_003","name":"西单大悦城","category":"shopping","rating":4.4,"lat":39.912,"lng":116.373,"address":"西城区西单北大街131号"},
    {"shop_id":"BJ_shop_004","name":"南锣鼓巷","category":"shopping","rating":4.5,"lat":39.938,"lng":116.403,"address":"东城区南锣鼓巷"},
    {"shop_id":"BJ_cafe_001","name":"故宫角楼咖啡","category":"cafe","rating":4.4,"lat":39.918,"lng":116.397,"address":"东城区景山前街4号"},
    {"shop_id":"BJ_scenic_009","name":"798艺术区","category":"scenic","rating":4.4,"lat":39.984,"lng":116.495,"address":"朝阳区酒仙桥路4号"},
    {"shop_id":"BJ_hotel_001","name":"北京饭店","category":"hotel","rating":4.5,"lat":39.911,"lng":116.409,"address":"东城区东长安街33号"}
  ],
  "上海": [
    {"shop_id":"SH_scenic_001","name":"外滩","category":"scenic","rating":4.9,"lat":31.240,"lng":121.490,"address":"黄浦区中山东一路"},
    {"shop_id":"SH_scenic_002","name":"东方明珠","category":"scenic","rating":4.7,"lat":31.239,"lng":121.499,"address":"浦东新区世纪大道1号"},
    {"shop_id":"SH_scenic_003","name":"豫园","category":"scenic","rating":4.6,"lat":31.227,"lng":121.492,"address":"黄浦区福佑路168号"},
    {"shop_id":"SH_scenic_004","name":"上海迪士尼乐园","category":"scenic","rating":4.8,"lat":31.143,"lng":121.660,"address":"浦东新区川沙镇"},
    {"shop_id":"SH_scenic_005","name":"南京路步行街","category":"shopping","rating":4.7,"lat":31.235,"lng":121.475,"address":"黄浦区南京东路"},
    {"shop_id":"SH_scenic_006","name":"田子坊","category":"shopping","rating":4.4,"lat":31.210,"lng":121.469,"address":"黄浦区泰康路210弄"},
    {"shop_id":"SH_scenic_007","name":"上海博物馆","category":"scenic","rating":4.6,"lat":31.230,"lng":121.473,"address":"黄浦区人民大道201号"},
    {"shop_id":"SH_scenic_008","name":"朱家角古镇","category":"scenic","rating":4.5,"lat":31.109,"lng":121.053,"address":"青浦区朱家角镇"},
    {"shop_id":"SH_res_001","name":"南翔馒头店(豫园店)","category":"restaurant","rating":4.5,"lat":31.227,"lng":121.492,"address":"黄浦区豫园路85号"},
    {"shop_id":"SH_res_002","name":"老正兴菜馆(福州路店)","category":"restaurant","rating":4.4,"lat":31.233,"lng":121.486,"address":"黄浦区福州路556号"},
    {"shop_id":"SH_res_003","name":"绿波廊","category":"restaurant","rating":4.5,"lat":31.227,"lng":121.491,"address":"黄浦区豫园路115号"},
    {"shop_id":"SH_res_004","name":"光明邨大酒家","category":"restaurant","rating":4.6,"lat":31.218,"lng":121.470,"address":"黄浦区淮海中路588号"},
    {"shop_id":"SH_res_005","name":"蟹尊苑(外滩店)","category":"restaurant","rating":4.6,"lat":31.238,"lng":121.489,"address":"黄浦区中山东一路6号"},
    {"shop_id":"SH_shop_002","name":"新天地","category":"shopping","rating":4.5,"lat":31.220,"lng":121.475,"address":"黄浦区太仓路181弄"},
    {"shop_id":"SH_shop_003","name":"陆家嘴国金中心","category":"shopping","rating":4.5,"lat":31.236,"lng":121.502,"address":"浦东新区世纪大道8号"},
    {"shop_id":"SH_cafe_001","name":"%Arabica(外滩源店)","category":"cafe","rating":4.4,"lat":31.242,"lng":121.488,"address":"黄浦区圆明园路169号"},
    {"shop_id":"SH_scenic_009","name":"静安寺","category":"scenic","rating":4.4,"lat":31.225,"lng":121.446,"address":"静安区南京西路1686号"},
    {"shop_id":"SH_scenic_010","name":"上海科技馆","category":"scenic","rating":4.5,"lat":31.221,"lng":121.540,"address":"浦东新区世纪大道2000号"},
    {"shop_id":"SH_hotel_001","name":"和平饭店","category":"hotel","rating":4.8,"lat":31.241,"lng":121.489,"address":"黄浦区南京东路20号"},
    {"shop_id":"SH_shop_004","name":"兴业太古汇","category":"shopping","rating":4.4,"lat":31.229,"lng":121.459,"address":"静安区南京西路789号"}
  ],
  "广州": [
    {"shop_id":"GZ_scenic_001","name":"广州塔","category":"scenic","rating":4.7,"lat":23.106,"lng":113.324,"address":"海珠区阅江西路222号"},
    {"shop_id":"GZ_scenic_002","name":"白云山","category":"scenic","rating":4.6,"lat":23.165,"lng":113.295,"address":"白云区广园中路"},
    {"shop_id":"GZ_scenic_003","name":"陈家祠","category":"scenic","rating":4.6,"lat":23.130,"lng":113.247,"address":"荔湾区中山七路"},
    {"shop_id":"GZ_scenic_004","name":"长隆欢乐世界","category":"scenic","rating":4.7,"lat":23.004,"lng":113.327,"address":"番禺区汉溪大道"},
    {"shop_id":"GZ_scenic_005","name":"沙面岛","category":"scenic","rating":4.5,"lat":23.110,"lng":113.240,"address":"荔湾区沙面南街"},
    {"shop_id":"GZ_res_001","name":"广州酒家(文昌总店)","category":"restaurant","rating":4.6,"lat":23.123,"lng":113.246,"address":"荔湾区文昌南路2号"},
    {"shop_id":"GZ_res_002","name":"陶陶居(第十甫路店)","category":"restaurant","rating":4.5,"lat":23.118,"lng":113.243,"address":"荔湾区第十甫路20号"},
    {"shop_id":"GZ_res_003","name":"点都德(聚福楼店)","category":"restaurant","rating":4.5,"lat":23.126,"lng":113.260,"address":"越秀区惠福东路470号"},
    {"shop_id":"GZ_res_004","name":"炳胜品味(天河店)","category":"restaurant","rating":4.6,"lat":23.126,"lng":113.331,"address":"天河区天河东路168号"},
    {"shop_id":"GZ_res_005","name":"惠食佳(东风店)","category":"restaurant","rating":4.5,"lat":23.133,"lng":113.276,"address":"越秀区东风东路760号"},
    {"shop_id":"GZ_shop_001","name":"天河城","category":"shopping","rating":4.4,"lat":23.131,"lng":113.321,"address":"天河区天河路208号"},
    {"shop_id":"GZ_shop_002","name":"北京路步行街","category":"shopping","rating":4.5,"lat":23.124,"lng":113.270,"address":"越秀区北京路"},
    {"shop_id":"GZ_shop_003","name":"正佳广场","category":"shopping","rating":4.4,"lat":23.132,"lng":113.326,"address":"天河区天河路228号"},
    {"shop_id":"GZ_scenic_006","name":"越秀公园","category":"scenic","rating":4.4,"lat":23.142,"lng":113.264,"address":"越秀区解放北路"},
    {"shop_id":"GZ_scenic_007","name":"中山纪念堂","category":"scenic","rating":4.5,"lat":23.135,"lng":113.264,"address":"越秀区东风中路"},
    {"shop_id":"GZ_scenic_008","name":"珠江夜游","category":"scenic","rating":4.6,"lat":23.112,"lng":113.256,"address":"越秀区沿江东路"},
    {"shop_id":"GZ_hotel_001","name":"广州四季酒店","category":"hotel","rating":4.8,"lat":23.118,"lng":113.323,"address":"天河区珠江新城"},
    {"shop_id":"GZ_cafe_001","name":"来回咖啡(天河南店)","category":"cafe","rating":4.3,"lat":23.128,"lng":113.325,"address":"天河区天河南一路"},
    {"shop_id":"GZ_shop_004","name":"太古汇","category":"shopping","rating":4.6,"lat":23.133,"lng":113.330,"address":"天河区天河路383号"},
    {"shop_id":"GZ_scenic_009","name":"永庆坊","category":"scenic","rating":4.4,"lat":23.115,"lng":113.238,"address":"荔湾区恩宁路"}
  ],
  "深圳": [
    {"shop_id":"SZ_scenic_001","name":"世界之窗","category":"scenic","rating":4.5,"lat":22.537,"lng":113.973,"address":"南山区深南大道9037号"},
    {"shop_id":"SZ_scenic_002","name":"锦绣中华","category":"scenic","rating":4.4,"lat":22.537,"lng":113.979,"address":"南山区深南大道9003号"},
    {"shop_id":"SZ_scenic_003","name":"欢乐谷","category":"scenic","rating":4.5,"lat":22.544,"lng":113.984,"address":"南山区侨城西街1号"},
    {"shop_id":"SZ_scenic_004","name":"深圳湾公园","category":"scenic","rating":4.6,"lat":22.518,"lng":113.955,"address":"南山区望海路"},
    {"shop_id":"SZ_scenic_005","name":"大梅沙海滨公园","category":"scenic","rating":4.3,"lat":22.598,"lng":114.310,"address":"盐田区盐梅路"},
    {"shop_id":"SZ_scenic_006","name":"莲花山公园","category":"scenic","rating":4.5,"lat":22.551,"lng":114.060,"address":"福田区红荔路6030号"},
    {"shop_id":"SZ_res_001","name":"润园四季椰子鸡(华侨城店)","category":"restaurant","rating":4.6,"lat":22.538,"lng":113.983,"address":"南山区华侨城"},
    {"shop_id":"SZ_res_002","name":"金光华茶餐厅(福田店)","category":"restaurant","rating":4.3,"lat":22.540,"lng":114.069,"address":"福田区福华三路"},
    {"shop_id":"SZ_res_003","name":"凤凰楼(万象天地店)","category":"restaurant","rating":4.6,"lat":22.538,"lng":113.958,"address":"南山区科苑南路"},
    {"shop_id":"SZ_res_004","name":"79号渔船(海上世界店)","category":"restaurant","rating":4.5,"lat":22.486,"lng":113.909,"address":"南山区望海路"},
    {"shop_id":"SZ_shop_001","name":"华强北商业街","category":"shopping","rating":4.3,"lat":22.545,"lng":114.087,"address":"福田区华强北路"},
    {"shop_id":"SZ_shop_002","name":"万象城(罗湖店)","category":"shopping","rating":4.5,"lat":22.538,"lng":114.115,"address":"罗湖区宝安南路1881号"},
    {"shop_id":"SZ_shop_003","name":"海岸城","category":"shopping","rating":4.4,"lat":22.517,"lng":113.938,"address":"南山区文心五路33号"},
    {"shop_id":"SZ_scenic_007","name":"华侨城创意园","category":"scenic","rating":4.4,"lat":22.543,"lng":113.981,"address":"南山区恩平街"},
    {"shop_id":"SZ_scenic_008","name":"东部华侨城","category":"scenic","rating":4.4,"lat":22.615,"lng":114.306,"address":"盐田区大梅沙"},
    {"shop_id":"SZ_hotel_001","name":"深圳瑞吉酒店","category":"hotel","rating":4.7,"lat":22.544,"lng":114.113,"address":"罗湖区深南东路5016号"},
    {"shop_id":"SZ_cafe_001","name":"星巴克臻选(万象天地店)","category":"cafe","rating":4.3,"lat":22.537,"lng":113.958,"address":"南山区科苑南路"},
    {"shop_id":"SZ_res_005","name":"八合里牛肉火锅(福田店)","category":"hotpot","rating":4.5,"lat":22.544,"lng":114.078,"address":"福田区福华路"},
    {"shop_id":"SZ_scenic_009","name":"平安金融中心云际观光","category":"scenic","rating":4.6,"lat":22.537,"lng":114.058,"address":"福田区益田路5033号"},
    {"shop_id":"SZ_shop_004","name":"壹方城","category":"shopping","rating":4.4,"lat":22.544,"lng":113.882,"address":"宝安区新安街道"}
  ],
  "成都": [
    {"shop_id":"CD_scenic_001","name":"宽窄巷子","category":"scenic","rating":4.6,"lat":30.668,"lng":104.056,"address":"青羊区宽窄巷子"},
    {"shop_id":"CD_scenic_002","name":"锦里古街","category":"scenic","rating":4.5,"lat":30.645,"lng":104.046,"address":"武侯区武侯祠大街231号"},
    {"shop_id":"CD_scenic_003","name":"武侯祠","category":"scenic","rating":4.5,"lat":30.645,"lng":104.047,"address":"武侯区武侯祠大街231号"},
    {"shop_id":"CD_scenic_004","name":"大熊猫繁育研究基地","category":"scenic","rating":4.8,"lat":30.733,"lng":104.145,"address":"成华区熊猫大道1375号"},
    {"shop_id":"CD_scenic_005","name":"都江堰","category":"scenic","rating":4.7,"lat":30.998,"lng":103.617,"address":"都江堰市公园路"},
    {"shop_id":"CD_scenic_006","name":"杜甫草堂","category":"scenic","rating":4.4,"lat":30.662,"lng":104.026,"address":"青羊区青华路37号"},
    {"shop_id":"CD_res_001","name":"小龙坎老火锅(春熙路店)","category":"hotpot","rating":4.6,"lat":30.654,"lng":104.080,"address":"锦江区东大街188号"},
    {"shop_id":"CD_res_002","name":"蜀大侠火锅(太古里店)","category":"hotpot","rating":4.6,"lat":30.652,"lng":104.084,"address":"锦江区太古里"},
    {"shop_id":"CD_res_003","name":"陈麻婆豆腐(骡马市店)","category":"restaurant","rating":4.4,"lat":30.667,"lng":104.065,"address":"青羊区西玉龙街197号"},
    {"shop_id":"CD_res_004","name":"明婷饭店","category":"restaurant","rating":4.5,"lat":30.674,"lng":104.082,"address":"金牛区外曹家巷26号"},
    {"shop_id":"CD_res_005","name":"玉林串串香(总店)","category":"hotpot","rating":4.3,"lat":30.628,"lng":104.048,"address":"武侯区玉林街26号"},
    {"shop_id":"CD_cafe_001","name":"鹤鸣茶社","category":"cafe","rating":4.6,"lat":30.658,"lng":104.048,"address":"青羊区少城路12号人民公园内"},
    {"shop_id":"CD_shop_001","name":"春熙路","category":"shopping","rating":4.6,"lat":30.655,"lng":104.080,"address":"锦江区春熙路"},
    {"shop_id":"CD_shop_002","name":"太古里","category":"shopping","rating":4.7,"lat":30.653,"lng":104.084,"address":"锦江区中纱帽街8号"},
    {"shop_id":"CD_scenic_007","name":"青城山","category":"scenic","rating":4.6,"lat":30.900,"lng":103.567,"address":"都江堰市青城山路"},
    {"shop_id":"CD_scenic_008","name":"文殊院","category":"scenic","rating":4.5,"lat":30.673,"lng":104.067,"address":"青羊区文殊院街66号"},
    {"shop_id":"CD_res_006","name":"冒椒火辣(奎星楼店)","category":"hotpot","rating":4.5,"lat":30.667,"lng":104.054,"address":"青羊区奎星楼街33号"},
    {"shop_id":"CD_hotel_001","name":"成都博舍酒店","category":"hotel","rating":4.7,"lat":30.653,"lng":104.085,"address":"锦江区笔帖式街81号"},
    {"shop_id":"CD_scenic_009","name":"金沙遗址博物馆","category":"scenic","rating":4.5,"lat":30.680,"lng":104.012,"address":"青羊区金沙遗址路2号"},
    {"shop_id":"CD_shop_003","name":"IFS国际金融中心","category":"shopping","rating":4.5,"lat":30.654,"lng":104.082,"address":"锦江区红星路三段1号"}
  ],
  "杭州": [
    {"shop_id":"HZ_scenic_001","name":"西湖","category":"scenic","rating":4.9,"lat":30.245,"lng":120.148,"address":"西湖区龙井路1号"},
    {"shop_id":"HZ_scenic_002","name":"灵隐寺","category":"scenic","rating":4.7,"lat":30.242,"lng":120.097,"address":"西湖区灵隐路法云弄1号"},
    {"shop_id":"HZ_scenic_003","name":"雷峰塔","category":"scenic","rating":4.5,"lat":30.231,"lng":120.148,"address":"西湖区南山路15号"},
    {"shop_id":"HZ_scenic_004","name":"河坊街","category":"shopping","rating":4.4,"lat":30.239,"lng":120.171,"address":"上城区河坊街"},
    {"shop_id":"HZ_scenic_005","name":"西溪国家湿地公园","category":"scenic","rating":4.5,"lat":30.269,"lng":120.065,"address":"西湖区天目山路518号"},
    {"shop_id":"HZ_res_001","name":"楼外楼(孤山路店)","category":"restaurant","rating":4.3,"lat":30.247,"lng":120.140,"address":"西湖区孤山路30号"},
    {"shop_id":"HZ_res_002","name":"知味观(湖滨总店)","category":"restaurant","rating":4.4,"lat":30.248,"lng":120.165,"address":"上城区仁和路83号"},
    {"shop_id":"HZ_res_003","name":"新白鹿餐厅(西湖银泰店)","category":"restaurant","rating":4.4,"lat":30.242,"lng":120.169,"address":"上城区延安路98号"},
    {"shop_id":"HZ_res_004","name":"外婆家(西湖天地店)","category":"restaurant","rating":4.3,"lat":30.241,"lng":120.158,"address":"上城区南山路147号"},
    {"shop_id":"HZ_cafe_001","name":"湖畔居茶楼","category":"cafe","rating":4.5,"lat":30.248,"lng":120.159,"address":"上城区湖滨路23号"},
    {"shop_id":"HZ_shop_001","name":"银泰百货(武林店)","category":"shopping","rating":4.3,"lat":30.271,"lng":120.167,"address":"下城区延安路530号"},
    {"shop_id":"HZ_shop_002","name":"杭州大厦","category":"shopping","rating":4.5,"lat":30.275,"lng":120.165,"address":"下城区武林广场1号"},
    {"shop_id":"HZ_scenic_006","name":"宋城","category":"scenic","rating":4.5,"lat":30.170,"lng":120.096,"address":"西湖区之江路148号"},
    {"shop_id":"HZ_scenic_007","name":"千岛湖","category":"scenic","rating":4.6,"lat":29.607,"lng":119.043,"address":"淳安县千岛湖镇"},
    {"shop_id":"HZ_scenic_008","name":"三潭印月","category":"scenic","rating":4.6,"lat":30.237,"lng":120.143,"address":"西湖区西湖中央"},
    {"shop_id":"HZ_hotel_001","name":"杭州西子湖四季酒店","category":"hotel","rating":4.8,"lat":30.242,"lng":120.137,"address":"西湖区灵隐路5号"},
    {"shop_id":"HZ_res_005","name":"菊英面馆(中河南路店)","category":"restaurant","rating":4.5,"lat":30.226,"lng":120.177,"address":"上城区中河南路14号"},
    {"shop_id":"HZ_shop_003","name":"湖滨银泰in77","category":"shopping","rating":4.4,"lat":30.249,"lng":120.166,"address":"上城区延安路258号"},
    {"shop_id":"HZ_scenic_009","name":"六和塔","category":"scenic","rating":4.4,"lat":30.200,"lng":120.131,"address":"西湖区之江路16号"},
    {"shop_id":"HZ_scenic_010","name":"龙井村","category":"scenic","rating":4.5,"lat":30.226,"lng":120.116,"address":"西湖区龙井路"}
  ]
}
